City_ID,City,Lat,Lng,Max Temp,Humidity,Cloudiness,Wind Speed,Country,Date
0,hobart,-42.8794,147.3294,59.05,67,100,3,AU,1635354413
1,puerto ayora,-0.7393,-90.3518,75.16,92,95,5.01,EC,1635354521
2,ushuaia,-54.8,-68.3,55.06,41,20,14.97,AR,1635354588
3,torbay,47.6666,-52.7314,44.58,74,100,3,CA,1635354588
4,sitka,57.0531,-135.33,46.29,81,90,4.61,US,1635354588
5,mataura,-46.1927,168.8643,46.71,98,56,2.33,NZ,1635354589
6,rikitea,-23.1203,-134.9692,73.08,78,83,5.93,PF,1635354475
7,castro,-24.7911,-50.0119,70.32,73,84,6.73,BR,1635354575
8,albany,42.6001,-73.9662,58.8,69,95,11.43,US,1635354589
9,dikson,73.5069,80.5464,7.5,92,59,3.31,RU,1635354476
10,klaksvik,62.2266,-6.589,49.12,78,39,17.11,FO,1635354589
11,butia,-30.1197,-51.9622,90.41,29,0,6.06,BR,1635354589
12,portland,45.5234,-122.6762,55.47,91,75,1.01,US,1635354296
13,mungaa,-4.9667,34.8833,74.64,39,68,11.36,TZ,1635354590
14,sao joao da barra,-21.6403,-41.0511,82.49,80,78,13.58,BR,1635354590
15,norman wells,65.282,-126.8329,24.82,93,100,4.94,CA,1635354590
16,leningradskiy,69.3833,178.4167,9.7,93,100,20.87,RU,1635354465
17,bredasdorp,-34.5322,20.0403,71.28,88,100,14.43,ZA,1635354591
18,carnarvon,-24.8667,113.6333,66.27,59,90,12.66,AU,1635354591
19,kangaatsiaq,68.3065,-53.4641,18.57,62,100,6.87,GL,1635354496
20,itacare,-14.2775,-38.9967,80.92,70,11,12.08,BR,1635354591
21,pevek,69.7008,170.3133,10.13,94,100,12.84,RU,1635354591
22,atuona,-9.8,-139.0333,77.63,69,33,15.03,PF,1635354592
23,marawi,7.9986,124.2928,64.65,96,100,3.33,PH,1635354592
24,tuatapere,-46.1333,167.6833,49.39,95,52,1.9,NZ,1635354592
25,vaini,-21.2,-175.2,73.56,88,75,8.05,TO,1635354471
26,new norfolk,-42.7826,147.0587,58.71,47,100,3.44,AU,1635354593
27,nikolskoye,59.7035,30.7861,48.87,86,100,7.38,RU,1635354492
28,evensk,61.95,159.2333,5.4,79,3,7.29,RU,1635354593
29,isangel,-19.55,169.2667,75.54,89,100,4.92,VU,1635354593
30,tiksi,71.6872,128.8694,10.51,95,100,3.91,RU,1635354594
31,labuan,5.2767,115.2417,77.16,76,94,2.89,MY,1635354594
32,busselton,-33.65,115.3333,47.05,85,26,10.11,AU,1635354594
33,nalut,30.3333,10.85,71.31,37,5,8.84,LY,1635354595
34,meulaboh,4.1363,96.1285,74.62,93,100,5.99,ID,1635354595
35,fernandopolis,-20.2839,-50.2464,78.1,71,100,4.59,BR,1635354595
36,avarua,-21.2078,-159.775,71.65,88,75,3.44,CK,1635354478
37,rovaniemi,66.5,25.7167,29.61,93,90,12.66,FI,1635354595
38,mar del plata,-38.0023,-57.5575,77.02,65,0,9.22,AR,1635354596
39,la palma,33.8464,-118.0467,77.95,58,1,1.01,US,1635354596
40,jamestown,42.097,-79.2353,56.52,85,75,4,US,1635354354
41,scarborough,54.2797,-0.4044,62.08,77,100,5.99,GB,1635354596
42,barrow,71.2906,-156.7887,21.22,86,90,9.22,US,1635354597
43,deputatskiy,69.3,139.9,-0.11,98,100,1.48,RU,1635354597
44,chulman,56.8479,124.9104,16.41,95,89,2.98,RU,1635354597
45,abu dhabi,24.4667,54.3667,84.31,61,0,4.61,AE,1635354341
46,namatanai,-3.6667,152.4333,80.06,80,45,6.8,PG,1635354597
47,harnosand,62.6323,17.9379,37.42,82,62,9.93,SE,1635354598
48,paamiut,61.994,-49.6678,32.52,71,23,12.44,GL,1635354598
49,hithadhoo,-0.6,73.0833,83.01,73,10,15.59,MV,1635354513
50,khatanga,71.9667,102.5,6.46,91,100,11.05,RU,1635354598
51,berlevag,70.8578,29.0864,28.35,74,40,11.5,NO,1635354599
52,grand-santi,4.25,-54.3833,92.89,40,58,3.09,GF,1635354599
53,cabo san lucas,22.8909,-109.9124,85.51,59,1,1.99,MX,1635354509
54,tevaitoa,-16.7833,-151.5,78.87,78,73,6.8,PF,1635354599
55,pangnirtung,66.1451,-65.7125,28.78,88,72,5.97,CA,1635354600
56,buala,-8.145,159.5921,79.95,83,53,7.11,SB,1635354600
57,nelson bay,-32.7167,152.15,64.99,97,100,4.7,AU,1635354601
58,saint-philippe,-21.3585,55.7679,72.99,78,53,10.33,RE,1635354601
59,quang ngai,15.1167,108.8,75.16,93,100,2.44,VN,1635354602
60,huarmey,-10.0681,-78.1522,71.11,70,32,11.27,PE,1635354602
61,mareeba,-17,145.4333,72.32,93,51,4.18,AU,1635354603
62,naze,28.3667,129.4833,66.94,63,15,12.91,JP,1635354501
63,bluff,-46.6,168.3333,52.25,87,46,5.91,NZ,1635354603
64,kosh-agach,50,88.6667,29.14,68,100,2.95,RU,1635354604
65,hilo,19.7297,-155.09,82.27,72,75,5.75,US,1635354365
66,airai,-8.9266,125.4092,62.53,86,92,1.63,TL,1635354417
67,port alfred,-33.5906,26.891,67.01,81,100,36.86,ZA,1635354487
68,sur,22.5667,59.5289,81,67,82,10.63,OM,1635354605
69,port hardy,50.6996,-127.4199,44.78,93,75,6.91,CA,1635354605
70,ayan,56.45,138.1667,34.74,81,91,2.57,RU,1635354606
71,ribeira grande,38.5167,-28.7,68.4,73,40,14.97,PT,1635354607
72,florianopolis,-27.6146,-48.5012,85.41,57,0,12.66,BR,1635354607
73,puerto del rosario,28.5004,-13.8627,74.88,64,20,14.97,ES,1635354608
74,esperance,-33.8667,121.9,55.58,70,84,23.64,AU,1635354608
75,kiunga,-6.1219,141.2906,73.42,100,67,2.46,PG,1635354609
76,pacific grove,36.6177,-121.9166,66.63,78,1,1.99,US,1635354437
77,punta arenas,-53.15,-70.9167,55.51,47,0,36.82,CL,1635354488
78,amazar,53.858,120.875,32.31,72,83,3.33,RU,1635354609
79,tasiilaq,65.6145,-37.6368,33.96,67,31,5.91,GL,1635354609
80,roald,62.5833,6.1333,55.54,71,75,14.97,NO,1635354610
81,iqaluit,63.7506,-68.5145,31.69,88,78,2.82,CA,1635354610
82,iquique,-20.2208,-70.1431,66.24,64,11,8.28,CL,1635354587
83,canmore,51.0834,-115.3521,44.82,66,37,7.9,CA,1635354610
84,hasaki,35.7333,140.8333,57.6,87,99,7.63,JP,1635354611
85,esmeraldas,-19.7625,-44.3139,83.26,49,88,7.67,BR,1635354611
86,burns lake,54.2331,-125.7533,36.88,86,57,6.55,CA,1635354611
87,neryungri,56.6709,124.6491,18.19,92,87,3.51,RU,1635354611
88,kapaa,22.0752,-159.319,71.58,100,1,5.75,US,1635354497
89,east london,-33.0153,27.9116,66.99,82,100,27.16,ZA,1635354467
90,ravar,31.2656,56.8055,60.67,27,0,5.39,IR,1635354612
91,chuy,-33.6971,-53.4616,84.38,46,0,5.21,UY,1635354612
92,tshikapa,-6.4167,20.8,76.19,76,86,2.71,CD,1635354612
93,pemba,-12.974,40.5178,78.98,78,14,10.94,MZ,1635354613
94,talnakh,69.4865,88.3972,-0.67,97,100,13.42,RU,1635354613
95,fort saint james,54.4333,-124.25,40.3,75,100,8.14,CA,1635354515
96,rio grande,-32.035,-52.0986,93.31,63,0,8.48,BR,1635354389
97,aquiraz,-3.9014,-38.3911,88.21,55,29,15.75,BR,1635354613
98,wilson,36.1501,-86.2833,64.38,57,1,8.05,US,1635354614
99,tavda,58.0425,65.2726,32.7,97,100,7.61,RU,1635354614
100,bengkulu,-3.8004,102.2655,76.12,87,100,2.98,ID,1635354499
101,thinadhoo,0.5333,72.9333,82.35,76,80,14.03,MV,1635354614
102,souillac,-20.5167,57.5167,74.35,78,20,5.75,MU,1635354476
103,hermanus,-34.4187,19.2345,71.8,86,100,8.37,ZA,1635354614
104,grand gaube,-20.0064,57.6608,74.37,67,0,3,MU,1635354615
105,patitirion,39.15,23.8667,60.28,65,63,14.97,GR,1635354615
106,bethel,41.3712,-73.414,59.11,77,90,1.01,US,1635354485
107,georgetown,5.4112,100.3354,82.89,83,20,2.3,MY,1635354449
108,northam,51.0333,-4.2167,60.1,85,89,22.06,GB,1635354615
109,fairbanks,64.8378,-147.7164,26.56,91,90,0,US,1635354616
110,cape town,-33.9258,18.4232,71.11,63,100,2.15,ZA,1635354616
111,bukama,-9.2,25.85,79.68,56,52,2.24,CD,1635354616
112,coruripe,-10.1256,-36.1756,83.14,61,7,12.95,BR,1635354617
113,varadero,23.1536,-81.2514,88.56,68,72,3.69,CU,1635354617
114,kupang,-10.1667,123.5833,80.2,79,42,6.62,ID,1635354617
115,kostomuksha,64.571,30.5767,30.49,97,100,4.99,RU,1635354617
116,prince rupert,54.3161,-130.3201,45.57,82,100,14.36,CA,1635354618
117,saskylakh,71.9167,114.0833,-12.64,100,100,2.3,RU,1635354551
118,kualakapuas,-3.0091,114.3876,77.16,93,96,1.72,ID,1635354618
119,dingle,10.9995,122.6711,75.63,94,100,5.57,PH,1635354618
120,butaritari,3.0707,172.7902,82.69,68,100,12.53,KI,1635354557
121,biak,-0.9131,122.8766,77.43,84,23,0.58,ID,1635354555
122,necochea,-38.5473,-58.7368,86.04,42,6,6.06,AR,1635354619
123,victoria,22.2855,114.1577,78.85,81,92,1.01,HK,1635354619
124,ossora,59.2353,163.0719,19.4,93,94,4.32,RU,1635354619
125,kasongo,-4.45,26.6667,71.04,83,28,3.06,CD,1635354619
126,yellowknife,62.456,-114.3525,39.42,100,90,3.44,CA,1635354620
127,coquimbo,-29.9533,-71.3436,62.67,73,51,7.96,CL,1635354530
128,labrea,-7.2586,-64.7981,89.53,57,97,2.73,BR,1635354620
129,gizo,-8.103,156.8419,82.69,78,23,9.19,SB,1635354620
130,san gabriel,34.0961,-118.1058,76.64,40,1,3,US,1635354584
131,half moon bay,37.4636,-122.4286,65.82,81,1,4.61,US,1635354620
132,pisco,-13.7,-76.2167,68.05,73,0,10.36,PE,1635354621
133,qaanaaq,77.484,-69.3632,20.93,94,100,10.38,GL,1635354514
134,anloga,5.7947,0.8973,82.22,73,51,10.78,GH,1635354621
135,rancho palos verdes,33.7445,-118.387,75.94,57,1,1.99,US,1635354423
136,katsuura,35.1333,140.3,61.2,91,100,7.38,JP,1635354621
137,salisbury,51.0693,-1.7957,60.3,82,75,12.66,GB,1635354593
138,sobolevo,54.4299,31.8996,41.47,86,91,10.02,RU,1635354622
139,coos bay,43.3665,-124.2179,56.23,97,1,6.91,US,1635354622
140,vestmannaeyjar,63.4427,-20.2734,44.71,70,99,11.77,IS,1635354622
141,mount gambier,-37.8333,140.7667,55.31,94,90,6.91,AU,1635354622
142,madingou,-4.1536,13.55,72.18,96,100,3.65,CG,1635354623
143,viedma,-40.8135,-62.9967,91.24,12,7,4.92,AR,1635354469
144,sechura,-5.5569,-80.8222,77.59,56,94,11.43,PE,1635354623
145,vila velha,-20.3297,-40.2925,82.35,65,20,13.8,BR,1635354623
146,upernavik,72.7868,-56.1549,24.12,67,100,5.26,GL,1635354623
147,kavaratti,10.5669,72.642,81.54,76,45,7.76,IN,1635354624
148,ano mera,37.45,25.4,62.13,77,20,18.41,GR,1635354624
149,lebu,-37.6167,-73.65,58.26,75,4,15.88,CL,1635354474
150,provideniya,64.3833,-173.3,14.32,79,99,9.66,RU,1635354624
151,saldanha,-33.0117,17.9442,61.3,93,100,18.34,ZA,1635354599
152,geraldton,-28.7667,114.6,55.81,88,75,4.61,AU,1635354625
153,maxixe,-23.8597,35.3472,71.49,78,46,11.45,MZ,1635354625
154,udachnyy,66.4167,112.4,18.97,96,100,6.87,RU,1635354625
155,vardo,70.3705,31.1107,33.78,64,20,14.97,NO,1635354626
156,opotiki,-38.0833,177.2833,59.38,93,100,1.68,NZ,1635354626
157,saint anthony,45.0205,-93.218,52.25,74,90,5.01,US,1635354626
158,hovd,48.0056,91.6419,38.71,40,41,6.4,MN,1635354626
159,el centro,32.792,-115.563,77.85,26,1,4.61,US,1635354349
160,bandarbeyla,9.4942,50.8122,79.45,76,0,12.68,SO,1635354627
161,tabou,4.423,-7.3528,79.92,80,89,6.38,CI,1635354627
162,yakeshi,49.2833,120.7333,32.83,62,2,3.74,CN,1635354627
163,mizdah,31.4451,12.9801,68.23,58,9,11.7,LY,1635354628
164,cherskiy,68.75,161.3,-18.99,98,9,5.28,RU,1635354628
165,changli,39.7042,119.1506,51.3,46,10,5.17,CN,1635354628
166,tura,25.5198,90.2201,67.59,94,0,3.8,IN,1635354629
167,alpena,45.0617,-83.4327,50.32,85,90,1.99,US,1635354629
168,dores do indaia,-19.4633,-45.6017,83.52,47,82,6.29,BR,1635354629
169,tuktoyaktuk,69.4541,-133.0374,28.4,100,90,0,CA,1635354630
170,kelso,46.1468,-122.9084,54.45,95,90,5.75,US,1635354630
171,rocha,-34.4833,-54.3333,86.38,43,0,5.95,UY,1635354630
172,chokurdakh,70.6333,147.9167,2.88,90,100,5.73,RU,1635354587
173,honolulu,21.3069,-157.8583,73.56,77,40,3.44,US,1635354363
174,la sarre,48.8002,-79.1996,48.33,47,91,6.89,CA,1635354631
175,qinhuangdao,39.9317,119.5883,54.23,42,0,5.35,CN,1635354631
176,arraial do cabo,-22.9661,-42.0278,76.86,83,75,16.11,BR,1635354631
177,conil,44.9673,3.7177,43.81,74,2,2.48,FR,1635354632
178,gat,31.61,34.7642,73.4,58,0,8.41,IL,1635354632
179,port elizabeth,-33.918,25.5701,68.09,77,100,26.46,ZA,1635354632
180,la tuque,47.4334,-72.7824,50.43,51,100,8.75,CA,1635354632
181,saint-joseph,-21.3667,55.6167,71.98,78,42,7.36,RE,1635354633
182,telimele,10.9167,-13.3333,83.66,73,47,2.75,GN,1635354633
183,sabzevar,36.2126,57.6819,49.03,52,30,6.8,IR,1635354563
184,arequipa,-16.3989,-71.535,73.83,12,2,14.5,PE,1635354542
185,trezzano sul naviglio,45.4231,9.0664,61.2,53,0,1.99,IT,1635354633
186,kristiansund,63.1115,7.732,54.25,62,75,11.5,NO,1635354634
187,nara,34.6851,135.8049,60.08,80,0,1.25,JP,1635354634
188,gwadar,25.1216,62.3254,79.03,69,0,8.88,PK,1635354634
189,khasan,42.4308,130.6434,51.69,45,5,21.23,RU,1635354634
190,sakata,38.9167,139.855,60.35,76,47,15.28,JP,1635354635
191,ilulissat,69.2167,-51.1,15.82,48,40,5.75,GL,1635354551
192,college,64.8569,-147.8028,26.55,91,75,4.61,US,1635354635
193,acajutla,13.5928,-89.8275,91.74,76,19,4.7,SV,1635354635
194,svobodnyy,51.4,128.1333,33.4,84,2,7.34,RU,1635354636
195,galbinasi,45.0833,26.9167,51.01,50,1,4.43,RO,1635354636
196,aginskoye,51.1,114.53,35.6,63,20,4.47,RU,1635354636
197,mehamn,71.0357,27.8492,28.31,74,0,9.22,NO,1635354598
198,manaus,-3.1019,-60.025,81.1,89,40,9.22,BR,1635354616
199,thompson,55.7435,-97.8558,41.16,100,90,3.44,CA,1635354637
200,okato,-39.2,173.8833,57.42,98,100,4.43,NZ,1635354637
201,comodoro rivadavia,-45.8667,-67.5,76.86,23,0,29.93,AR,1635354637
202,pasni,25.2631,63.471,78.49,73,0,6.35,PK,1635354637
203,ixtapa,20.7,-105.2,83.43,79,90,2.3,MX,1635354527
204,kommunisticheskiy,61.6789,64.4819,25.79,80,100,8.08,RU,1635354638
205,kieta,-6.2167,155.6333,78.69,86,13,4.9,PG,1635354638
206,laguna,38.421,-121.4238,67.08,83,75,1.01,US,1635354638
207,vila,42.0304,-8.1588,60.33,59,6,3.83,PT,1635354639
208,hereford,52.0568,-2.7148,61.05,62,98,1.01,GB,1635354639
209,iquitos,-3.7481,-73.2472,82.44,74,75,5.75,PE,1635354639
210,vao,-22.6667,167.4833,72.77,83,79,9.64,NC,1635354639
211,oussouye,12.485,-16.5469,84.38,70,87,7.83,SN,1635354640
212,killybegs,54.6333,-8.45,56.91,89,100,8.5,IE,1635354640
213,ha tinh,18.3333,105.9,71.38,93,100,8.95,VN,1635354640
214,nanortalik,60.1432,-45.2371,38.26,59,0,4.47,GL,1635354517
215,goderich,43.7501,-81.7165,58.03,81,96,5.5,CA,1635354641
216,clinton,42.587,-82.9199,53.71,90,90,4.61,US,1635354477
217,salalah,17.0151,54.0924,78.89,78,0,0,OM,1635354506
218,aklavik,68.2191,-135.0107,27.32,93,100,5.5,CA,1635354641
219,port blair,11.6667,92.75,81.01,84,88,8.5,IN,1635354641
220,alice springs,-23.7,133.8833,76.55,44,70,5.75,AU,1635354642
221,chifeng,42.2683,118.9636,44.82,42,0,5.01,CN,1635354642
222,srednekolymsk,67.45,153.6833,-8.28,98,80,2.55,RU,1635354642
223,foki,56.693,54.3499,37,78,100,10.33,RU,1635354642
224,cabedelo,-6.9811,-34.8339,88.47,62,17,16.2,BR,1635354643
225,puerto madryn,-42.7692,-65.0385,75.31,34,46,9.13,AR,1635354643
226,shakawe,-18.3667,21.85,81.46,44,86,10.94,BW,1635354643
227,kampong thum,12.7111,104.8887,74.17,95,100,1.95,KH,1635354643
228,lasa,46.6166,10.7002,50.74,69,3,2.17,IT,1635354644
229,kavieng,-2.5744,150.7967,80.78,80,20,9.55,PG,1635354480
230,ponta do sol,32.6667,-17.1,74.71,66,24,2.66,PT,1635354493
231,tuy hoa,13.0833,109.3,76.86,92,98,4.79,VN,1635354644
232,port lincoln,-34.7333,135.8667,55.49,86,32,10.38,AU,1635354644
233,eyl,7.9803,49.8164,80.55,72,48,10.16,SO,1635354645
234,severobaykalsk,55.65,109.3167,35.42,86,83,2.71,RU,1635354645
235,chapais,49.7834,-74.8492,45.9,46,100,5.84,CA,1635354645
236,maumelle,34.8668,-92.4043,66.22,75,91,4,US,1635354568
237,bajil,15.0584,43.2851,86.5,51,33,8.68,YE,1635354646
238,brae,60.3964,-1.353,53.51,88,80,16.37,GB,1635354646
239,halifax,44.6453,-63.5724,50.47,92,100,8.01,CA,1635354424
240,zeya,53.75,127.2667,31.59,81,10,2.57,RU,1635354646
241,padang,-0.9492,100.3543,77.05,81,54,3.22,ID,1635354646
242,sorland,67.667,12.6934,44.46,88,100,19.64,NO,1635354647
243,clyde river,70.4692,-68.5914,28.65,83,100,4.16,CA,1635354580
244,vanimo,-2.6741,141.3028,79.32,86,99,3.98,PG,1635354647
245,amahai,-3.3333,128.9167,79.36,86,59,3.47,ID,1635354647
246,ahipara,-35.1667,173.1667,58.77,85,100,5.37,NZ,1635354621
247,kosonsoy,41.2561,71.5508,48.76,36,100,3.06,UZ,1635354648
248,longyearbyen,78.2186,15.6401,21.04,68,0,2.3,SJ,1635354648
249,noumea,-22.2763,166.4572,75.99,99,64,6.91,NC,1635354648
250,yichun,47.7,128.9,28.72,95,36,3.53,CN,1635354648
251,petropavlovsk-kamchatskiy,53.0452,158.6483,34.92,78,100,5.35,RU,1635354649
252,kalmunai,7.4167,81.8167,78.96,81,100,4.36,LK,1635354649
253,winneba,5.3511,-0.6231,80.6,77,33,9.24,GH,1635354649
254,tabuk,17.4189,121.4443,70.47,90,39,3.91,PH,1635354650
255,shingu,33.7333,135.9833,56.48,80,2,6.49,JP,1635354650
256,uitenhage,-33.7576,25.3971,67.41,71,100,18.77,ZA,1635354650
257,ancud,-41.8697,-73.8203,63.43,70,61,8.37,CL,1635354650
258,broken hill,-31.95,141.4333,76.15,24,79,16.62,AU,1635354603
259,road town,18.4167,-64.6167,86.09,66,20,10.36,VG,1635354651
260,bambous virieux,-20.3428,57.7575,74.21,78,20,5.75,MU,1635354651
261,omboue,-1.5746,9.2618,77.31,84,100,9.93,GA,1635354590
262,savelugu,9.6244,-0.8253,92.62,39,100,4.34,GH,1635354651
263,san patricio,28.017,-97.5169,87.03,18,46,25.66,US,1635354528
264,arlit,18.7369,7.3853,92.12,10,1,6.49,NE,1635354652
265,kralendijk,12.15,-68.2667,85.98,70,40,20.71,BQ,1635354652
266,buena vista,43.4203,-83.8986,51.98,92,90,5.75,US,1635354652
267,axim,4.8699,-2.2405,81.19,74,50,9.44,GH,1635354652
268,banjar,-8.19,114.9675,80.46,88,100,3.18,ID,1635354653
269,tromso,69.6496,18.957,37.42,52,40,10.36,NO,1635354653
270,alta floresta,-9.8756,-56.0861,85.96,65,98,1.99,BR,1635354653
271,kasane,-17.8167,25.15,87.03,26,71,6.49,BW,1635354654
272,mookane,-23.688,26.6595,76.5,45,94,17.43,BW,1635354654
273,warrington,53.3925,-2.5802,63.86,76,75,7,GB,1635354654
274,kodiak,57.79,-152.4072,35.11,48,1,3.44,US,1635354534
275,leshukonskoye,64.8989,45.7622,34.7,100,100,5.06,RU,1635354654
276,palu,-0.8917,119.8707,76.19,92,88,2.91,ID,1635354655
277,san jose,37.3394,-121.895,65.79,78,20,0,US,1635354655
278,ust-tsilma,65.441,52.1498,25.45,96,100,8.1,RU,1635354655
279,yar-sale,66.8333,70.8333,13.19,90,84,8.55,RU,1635354520
280,sao filipe,14.8961,-24.4956,79.36,75,63,9.08,CV,1635354655
281,kahului,20.8947,-156.47,76.84,84,20,0,US,1635354656
282,kyra,49.5776,111.9753,33.93,64,7,3.13,RU,1635354515
283,carutapera,-1.195,-46.02,87.3,58,54,10.87,BR,1635354656
284,utevka,52.9035,50.9495,40.26,50,100,16.31,RU,1635354656
285,lagoa,39.05,-27.9833,67.37,70,100,21.56,PT,1635354524
286,weligama,5.9667,80.4167,77.05,88,88,7.76,LK,1635354643
287,inhambane,-23.865,35.3833,72.16,78,43,12.88,MZ,1635354657
288,luoyang,34.6836,112.4536,56.17,55,44,1.74,CN,1635354657
289,oranjemund,-28.55,16.4333,64.99,69,95,1.01,NA,1635354657
290,guerrero negro,27.9769,-114.0611,72.93,46,0,1.81,MX,1635354512
291,koppies,-27.2418,27.5742,64.11,73,100,11.25,ZA,1635354657
292,tiradentes,-21.1103,-44.1781,74.44,69,96,9.51,BR,1635354658
293,borogontsy,62.6683,131.1683,13.26,98,92,3.69,RU,1635354658
294,mahebourg,-20.4081,57.7,74.25,78,20,5.75,MU,1635354517
295,honiara,-9.4333,159.95,77.72,89,71,5.39,SB,1635354658
296,nizhnyaya poyma,56.1622,97.1933,28.54,56,37,7.81,RU,1635354659
297,lorengau,-2.0226,147.2712,81.46,76,62,3.44,PG,1635354659
298,praia da vitoria,38.7333,-27.0667,69.76,77,100,11.83,PT,1635354659
299,bathsheba,13.2167,-59.5167,84.81,70,20,13.8,BB,1635354616
300,rawson,-43.3002,-65.1023,79.9,27,43,8.57,AR,1635354659
301,soyo,-6.1349,12.3689,76.96,81,94,7.38,AO,1635354623
302,hemsedal,60.8629,8.5534,34.52,91,18,5.23,NO,1635354660
303,astoria,46.1879,-123.8313,54.91,90,90,1.01,US,1635354660
304,fallon,39.4735,-118.7774,58.91,62,75,5.75,US,1635354661
305,waingapu,-9.6567,120.2641,81.93,77,100,4.59,ID,1635354525
306,cayenne,4.9333,-52.3333,89.64,79,40,4,GF,1635354661
307,faya,18.3851,42.4509,61.32,58,74,2.17,SA,1635354466
308,walvis bay,-22.9575,14.5053,62.1,71,35,20.31,NA,1635354661
309,virginia beach,36.8529,-75.978,69.19,68,63,5.01,US,1635354442
310,tautira,-17.7333,-149.15,80.62,78,53,9.98,PF,1635354662
311,oriximina,-1.7656,-55.8661,91.08,50,99,6.06,BR,1635354519
312,hede,33.7681,120.2517,56.73,55,100,3.53,CN,1635354663
313,amberley,39.2048,-84.428,55.53,69,20,1.99,US,1635354663
314,tezu,27.9167,96.1667,67.77,56,1,4.47,IN,1635354663
315,caucaia,-3.7361,-38.6531,88.07,63,20,20.71,BR,1635354663
316,hamilton,39.1834,-84.5333,55.98,69,20,1.01,US,1635354396
317,lavrentiya,65.5833,-171,14.58,74,83,7.72,RU,1635354517
318,sioux lookout,50.1001,-91.917,44.98,75,100,10.31,CA,1635354664
319,narsaq,60.9167,-46.05,35.82,65,0,3.53,GL,1635354664
320,buraydah,26.326,43.975,82.74,11,96,11.07,SA,1635354597
321,madang,-5.2246,145.7966,76.91,90,95,1.34,PG,1635354664
322,lagos,6.5833,3.75,80.65,80,80,5.12,NG,1635354438
323,princeton,25.5384,-80.4089,90.01,69,40,8.05,US,1635354665
324,avera,33.194,-82.5271,66.07,31,65,4.45,US,1635354631
325,penzance,50.1186,-5.5371,58.77,91,83,26.75,GB,1635354665
326,jimenez,28.3333,-105.4,65.14,23,0,11.77,MX,1635354665
327,pathein,16.7833,94.7333,76.82,86,56,1.32,MM,1635354666
328,nevesinje,43.2586,18.1133,45.07,72,13,7.47,BA,1635354543
329,vila franca do campo,37.7167,-25.4333,68.41,91,100,13.67,PT,1635354666
330,rewari,28.1833,76.6167,78.01,41,0,3.67,IN,1635354666
331,chama,47.1821,8.4636,52.23,85,20,2.3,CH,1635354666
332,qaqortoq,60.7167,-46.0333,36.1,66,0,2.51,GL,1635354667
333,novorzhev,57.0294,29.3338,45.79,88,100,11.68,RU,1635354667
334,bergama,39.1207,27.1805,60.06,72,0,10.94,TR,1635354667
335,nome,64.5011,-165.4064,21.27,68,90,10.36,US,1635354484
336,krutaya gorka,55.3649,73.2231,31.68,64,97,7.36,RU,1635354668
337,albuquerque,35.0845,-106.6511,55.27,37,20,5.01,US,1635354376
338,rognan,67.0953,15.3878,39.34,73,100,8.3,NO,1635354668
339,lompoc,34.6391,-120.4579,72.57,51,1,6.91,US,1635354426
340,ambilobe,-13.2,49.05,76.53,72,89,2.62,MG,1635354668
341,ulaangom,49.9811,92.0667,36.34,61,100,0.6,MN,1635354668
342,caravelas,-17.7125,-39.2481,81.63,60,98,10.67,BR,1635354565
343,kamaishi,39.2667,141.8833,55.09,84,34,5.99,JP,1635354669
344,beringovskiy,63.05,179.3167,7.05,89,95,18.41,RU,1635354669
345,fortuna,40.5982,-124.1573,61.93,72,90,1.01,US,1635354669
346,bairnsdale,-37.8333,147.6167,54.7,93,87,4.99,AU,1635354669
347,parabel,58.6978,81.4825,25.57,83,8,9.37,RU,1635354670
348,vuktyl,63.8567,57.3094,26.62,95,100,12.88,RU,1635354670
349,bargarh,21.3333,83.6167,75.72,67,83,3.06,IN,1635354670
350,richards bay,-28.783,32.0377,67.41,76,93,8.21,ZA,1635354670
351,kurilsk,45.2333,147.8833,48.49,85,23,8.01,RU,1635354533
352,lucapa,-8.4192,20.7447,74.46,67,97,2.42,AO,1635354671
353,tual,-5.6667,132.75,83.84,76,47,9.35,ID,1635354671
354,pimentel,-6.8367,-79.9342,70.09,64,0,14.97,PE,1635354671
355,kisaran,2.9845,99.6158,74.39,97,79,2.93,ID,1635354672
356,leeuwarden,53.2014,5.8086,58.12,87,90,13.8,NL,1635354672
357,baoro,5.6667,15.9667,72.27,89,97,2.59,CF,1635354672
358,kiama,-34.6833,150.8667,63,92,85,3.33,AU,1635354672
359,lapi,17.716,121.8978,72.16,94,14,2.44,PH,1635354673
360,troitskoye,52.9821,84.6757,30.52,47,97,3.2,RU,1635354673
361,bowen,-20.0167,148.2333,76.24,77,3,10.2,AU,1635354673
362,shenjiamen,29.9576,122.298,66.06,61,33,9.48,CN,1635354593
363,grindavik,63.8424,-22.4338,41.47,87,40,9.22,IS,1635354674
364,hami,42.8,93.45,50.02,32,0,3.02,CN,1635354472
365,saint george,37.1041,-113.5841,57.67,55,1,3,US,1635354674
366,bayir,37.2687,28.2167,57.72,79,49,0.76,TR,1635354674
367,okha,53.5739,142.9478,38.95,94,99,8.32,RU,1635354511
368,husavik,66.0449,-17.3389,40.14,98,100,15.37,IS,1635354674
369,olafsvik,64.8945,-23.7142,40.17,96,100,21.36,IS,1635354675
370,ushibuka,32.1906,130.0228,64.87,58,0,9.4,JP,1635354675
371,bonthe,7.5264,-12.505,82.78,72,54,10.4,SL,1635354675
372,bambanglipuro,-7.95,110.2833,77.38,87,100,4.61,ID,1635354552
373,kloulklubed,7.0419,134.2556,84.15,73,61,11.14,PW,1635354676
374,poplar bluff,36.757,-90.3929,63.63,59,1,10.36,US,1635354676
375,kunda,25.7167,81.5167,69.28,51,0,5.08,IN,1635354676
376,moose factory,51.2585,-80.6094,46.45,62,55,2.86,CA,1635354624
377,ranong,9.9658,98.6348,77.67,89,42,4.88,TH,1635354676
378,baykit,61.67,96.37,21.4,85,100,16.08,RU,1635354677
379,kapit,2.0167,112.9333,73.47,99,51,0.54,MY,1635354677
380,mamallapuram,12.6264,80.1722,82.45,77,51,11.7,IN,1635354677
381,bullhead city,35.1478,-114.5683,75.27,28,1,13.8,US,1635354677
382,esparta,15.7437,-87.1766,89.55,60,59,6.42,HN,1635354678
383,aswan,24.0934,32.907,88.41,22,0,11.03,EG,1635354678
384,luwuk,-0.9516,122.7875,78.44,87,29,1.25,ID,1635354678
385,pochutla,15.7432,-96.4661,91.22,57,56,5.44,MX,1635354679
386,mfou,3.7159,11.6427,71.38,95,87,3.51,CM,1635354679
387,shaoyang,27.2315,111.4525,59.27,85,98,3.33,CN,1635354679
388,alofi,-19.0595,-169.9187,75.87,71,61,19.53,NU,1635354552
389,toora-khem,52.4675,96.11,35.04,87,100,2.93,RU,1635354537
390,severo-kurilsk,50.6789,156.125,42.76,93,100,4.88,RU,1635354679
391,te anau,-45.4167,167.7167,48.76,96,82,1.77,NZ,1635354680
392,yerbogachen,61.2767,108.0108,24.44,73,100,17.2,RU,1635354680
393,seoul,37.5683,126.9778,53.04,49,0,2.64,KR,1635354680
394,yacuiba,-22.038,-63.6797,96.42,15,76,11.43,BO,1635354680
395,aksu,41.1231,80.2644,51.4,37,9,1.61,CN,1635354525
396,maputo,-25.9653,32.5892,71.28,84,75,1.01,MZ,1635354611
397,orel-izumrud,43.4583,39.9244,48.22,81,0,4.47,RU,1635354681
398,luderitz,-26.6481,15.1594,67.14,61,100,6.29,NA,1635354531
399,camacha,33.0833,-16.3333,70.56,73,40,10.36,PT,1635354681
400,atambua,-9.1061,124.8925,76.6,83,99,2.44,ID,1635354681
401,murray bridge,-35.1167,139.2667,60.69,91,33,9.75,AU,1635354682
402,doaba,33.4244,70.7364,64.36,40,0,3.56,PK,1635354682
403,the valley,18.217,-63.0578,86.83,62,20,11.5,AI,1635354610
404,touros,-5.1989,-35.4608,88.7,58,34,18.14,BR,1635354682
405,liaocheng,36.4439,115.9647,57.72,45,100,0.85,CN,1635354683
406,moerai,-22.4333,-151.3333,74.05,78,98,22.68,PF,1635354683
407,canalete,8.6761,-76.2042,82.53,80,100,9.78,CO,1635354683
408,almeirim,-1.5233,-52.5817,90.21,50,95,5.66,BR,1635354684
409,plavinas,56.6178,25.7255,49.17,94,100,14.43,LV,1635354684
410,constantine,36.365,6.6147,60.51,60,91,6.44,DZ,1635354684
411,guiren,33.6697,118.1889,57.36,69,97,5.99,CN,1635354684
412,tecolutla,20.4833,-97.0167,89.46,71,17,5.41,MX,1635354685
413,vestmanna,62.1564,-7.1664,47.32,87,75,11.5,FO,1635354685
414,la rioja,42.25,-2.5,58.78,55,12,2.44,ES,1635354685
415,merida,20.9667,-89.6167,88.02,66,75,13.8,MX,1635354685
416,tarauaca,-8.1614,-70.7656,91.45,47,98,2.44,BR,1635354686
417,gorin,51.1983,136.6669,37.62,85,100,5.57,RU,1635354686
418,adre,13.4667,22.2,84.61,25,8,2.59,TD,1635354685
419,moyale,3.5167,39.0584,74.71,54,78,8.25,KE,1635354686
420,novikovo,51.1537,37.8879,40.1,61,4,8.3,RU,1635354686
421,phangnga,8.4509,98.5298,84.9,94,98,3.91,TH,1635354687
422,avallon,47.4833,3.9,51.82,70,6,5.7,FR,1635354687
423,belmonte,-15.8631,-38.8828,82.9,65,34,10.58,BR,1635354687
424,preston,53.7667,-2.7167,63.73,92,100,1.99,GB,1635354688
425,teshie,5.5836,-0.1072,81.95,73,40,10.42,GH,1635354688
426,khuzhir,53.1939,107.3397,43.39,71,89,5.48,RU,1635354688
427,karibib,-21.9333,15.8333,81.79,19,70,5.61,NA,1635354688
428,bilma,18.6853,12.9164,88.74,12,0,5.61,NE,1635354689
429,chenghai,23.4632,116.768,73.11,78,74,10.63,CN,1635354689
430,mao,39.8885,4.2658,64.96,68,20,10.36,ES,1635354689
431,vredendal,-31.6683,18.5012,73.18,41,100,3.33,ZA,1635354690
432,poli,-3.3333,36.8,64.53,73,93,5.68,TZ,1635354690
433,kaitangata,-46.2817,169.8464,47.97,95,47,1.23,NZ,1635354690
434,churapcha,62.0025,132.4325,7.5,100,88,4.23,RU,1635354690
435,praia,14.9215,-23.5087,86.54,62,75,17.27,CV,1635354487
436,shellbrook,53.2168,-106.4011,38.43,46,0,4.27,CA,1635354691
437,havre-saint-pierre,50.2334,-63.5986,44.96,65,40,5.75,CA,1635354534
438,wilmington,34.2257,-77.9447,67.86,51,1,11.5,US,1635354457
439,newton,42.337,-71.2092,50.11,93,90,5.01,US,1635354540
440,kayes,14,-11,91.53,45,26,8.88,ML,1635354691
441,zhangye,38.9342,100.4517,42.96,48,15,4.56,CN,1635354692
442,la ronge,55.1001,-105.2842,43.05,81,2,6.06,CA,1635354692
443,kilrush,52.6397,-9.4833,59.88,91,100,8.25,IE,1635354692
444,poum,-20.2333,164.0167,74.79,84,13,12.73,NC,1635354692
445,acapulco,16.8634,-99.8901,84.02,74,1,6.91,MX,1635354622
446,pitimbu,-7.4706,-34.8086,88.39,63,23,14.2,BR,1635354693
447,baherden,38.4362,57.4316,49.71,67,70,8.01,TM,1635354693
448,baracoa,20.3467,-74.4958,86.88,63,13,3.09,CU,1635354693
449,muscat,23.6139,58.5922,84.22,69,2,14.72,OM,1635354694
450,eregli,37.5133,34.0467,57.69,38,56,3.44,TR,1635354694
451,ocos,14.5094,-92.1933,91.9,77,34,5.57,GT,1635354694
452,noyabrsk,63.1994,75.4507,14.77,95,78,8.7,RU,1635354694
453,araouane,18.9048,-3.5265,97.18,12,52,2.64,ML,1635354695
454,palmas bellas,9.2319,-80.0867,87.71,84,100,4.25,PA,1635354695
455,kokopo,-4.352,152.2633,77.58,86,12,7.94,PG,1635354695
456,yumen,40.2833,97.2,43.21,43,64,10.94,CN,1635354695
457,kushima,31.4583,131.2333,56.12,80,0,4.88,JP,1635354696
458,chodavaram,17.8333,82.95,75.29,83,0,3.09,IN,1635354696
459,adilcevaz,38.8039,42.7342,44.31,42,1,0.63,TR,1635354696
460,buta,2.7858,24.73,74.55,88,51,2.98,CD,1635354697
461,harlingen,26.1906,-97.6961,89.55,46,75,25.32,US,1635354697
462,dicabisagan,17.0818,122.4157,76.98,87,64,7,PH,1635354583
463,hermiston,45.8404,-119.2895,58.46,60,1,10.36,US,1635354475
464,mayo,38.8876,-76.5119,70.36,65,1,13,US,1635354697
465,helong,42.5397,128.9972,42.3,57,1,11.39,CN,1635354697
466,levokumskoye,44.8219,44.6606,40.82,68,0,8.3,RU,1635354698
467,charyshskoye,51.3978,83.5598,31.66,98,100,1.95,RU,1635354698
468,kruisfontein,-34.0033,24.7314,65.88,77,100,18.72,ZA,1635354498
469,russell,32.3502,-85.1999,70,51,1,0,US,1635354698
470,rio rancho,35.2334,-106.6645,54.14,37,1,15.01,US,1635354532
471,soyaux,45.65,0.2,63.19,59,0,2.3,FR,1635354699
472,tashla,51.7716,52.7427,38.98,49,91,13.09,RU,1635354699
473,inta,66.0317,60.1659,21.51,75,100,13.15,RU,1635354699
474,tarko-sale,64.9225,77.785,9.41,95,38,9.6,RU,1635354699
475,tarakan,3.3,117.6333,81.27,76,69,2.39,ID,1635354700
476,chicama,-7.8447,-79.1469,63.14,58,36,10.38,PE,1635354700
477,tucuma,-0.1833,-50.05,89.55,52,76,7.49,BR,1635354700
478,guiratinga,-16.3494,-53.7583,90.1,43,100,5.48,BR,1635354700
479,jawhar,2.7809,45.5005,80.11,72,83,12.53,SO,1635354701
480,diamantino,-14.4086,-56.4461,91.36,48,97,5.32,BR,1635354701
481,komsomolskiy,40.4272,71.7189,54.32,47,100,6.91,UZ,1635354701
482,mindelo,16.8901,-24.9804,81.95,65,40,17.27,CV,1635354702
483,moscow,55.7522,37.6156,43.38,74,100,11.25,RU,1635354526
484,kazanskaya,45.4106,40.4361,44.67,60,0,6.49,RU,1635354702
485,nioro,13.35,-15.75,90.95,50,78,3.11,GM,1635354702
486,belaya gora,68.5333,146.4167,-2.25,95,99,2.04,RU,1635354703
487,saint-michel-des-saints,46.6834,-73.9159,47.93,49,100,8.61,CA,1635354485
488,manta,-0.95,-80.7333,78.58,78,90,9.22,EC,1635354703
489,qasigiannguit,68.8193,-51.1922,16.05,76,100,2.82,GL,1635354703
490,hambantota,6.1241,81.1185,78.58,82,95,11.81,LK,1635354498
491,bud,39.447,-86.1758,56.21,62,25,6.29,US,1635354703
492,trujillo,-8.116,-79.03,64.36,77,75,13.8,PE,1635354704
493,seydisehir,37.4193,31.8453,52.84,56,80,1.77,TR,1635354704
494,san agustin,20.5333,-103.4667,73.33,62,40,0,MX,1635354704
495,leeton,-34.5667,146.4,58.89,28,89,8.52,AU,1635354704
496,ostrovnoy,68.0531,39.5131,27.68,71,88,10.27,RU,1635354705
497,talcahuano,-36.7167,-73.1167,65.88,63,0,16.11,CL,1635354705
498,saint-pierre,-21.3393,55.4781,73.08,80,90,4.61,RE,1635354705
499,colac,-38.3333,143.5833,57.16,91,18,3.49,AU,1635354705
500,haines junction,60.7522,-137.5108,25.25,92,100,0.94,CA,1635354706
501,honningsvag,70.9821,25.9704,24.33,58,27,25.19,NO,1635354706
502,santiago del estero,-27.7951,-64.2615,92.8,11,87,17.34,AR,1635354706
503,ostashkov,57.1467,33.1075,42.15,85,100,9.53,RU,1635354707
504,barsukovskaya,44.7632,41.8191,35.74,65,0,7.31,RU,1635354707
505,mnogovershinnyy,53.9353,139.9242,34.43,98,100,6.08,RU,1635354707
506,chimore,-16.9833,-65.1333,100.44,19,50,3.36,BO,1635354671
507,sinnamary,5.3833,-52.95,85.28,65,12,10.74,GF,1635354707
508,ust-kuyga,70.0167,135.6,10.09,94,100,4.88,RU,1635354708
509,faanui,-16.4833,-151.75,79.07,78,73,6.29,PF,1635354544
510,elko,41.0002,-115.5012,50.05,71,59,18.01,US,1635354708
511,glendive,47.1053,-104.7125,55.02,57,1,14.97,US,1635354708
512,borne,52.3,6.75,58.01,84,86,7,NL,1635354708
513,namibe,-15.1961,12.1522,68.7,73,46,13,AO,1635354505
514,harindanga,22.0383,88.3214,80.58,75,44,6.38,IN,1635354709
515,waipawa,-41.4122,175.5153,54.45,86,100,3.49,NZ,1635354709
516,boke,10.9409,-14.2967,83.86,75,75,5.55,GN,1635354709
517,vegreville,53.5001,-112.0518,42.76,49,0,10.94,CA,1635354709
518,kitale,1.0157,35.0062,57.94,80,82,1.36,KE,1635354710
519,yangjiang,21.85,111.9667,71.83,80,99,6.33,CN,1635354654
520,barra patuca,15.8,-84.2833,86.95,63,100,8.03,HN,1635354710
521,svetlyy,54.675,20.1347,53.65,85,100,19.48,RU,1635354710
522,oxapampa,-10.5775,-75.4017,66.36,87,74,2.95,PE,1635354711
523,matara,5.9485,80.5353,76.82,89,86,7.85,LK,1635354431
524,kununurra,-15.7667,128.7333,80.58,89,75,1.14,AU,1635354570
525,ketchikan,55.3422,-131.6461,45.39,82,100,15.75,US,1635354711
526,chernyy yar,48.0624,46.1091,39.92,53,9,7.94,RU,1635354711
527,palauig,15.435,119.9045,80.44,76,81,3.74,PH,1635354517
528,ornskoldsvik,63.2909,18.7153,38.35,100,0,6.91,SE,1635354712
529,raahe,64.6833,24.4833,37,91,100,9.82,FI,1635354712
530,ankazoabo,-22.2833,44.5167,76.23,58,0,13.76,MG,1635354712
531,teguise,29.0605,-13.564,71.82,50,20,16.11,ES,1635354712
532,yarada,17.65,83.2667,81.54,76,0,11.03,IN,1635354713
533,batagay-alyta,67.8006,130.4114,-1.3,91,24,4.52,RU,1635354713
534,cartagena,10.3997,-75.5144,87.42,70,75,11.5,CO,1635354511
535,dauriya,49.9333,116.8667,28.74,80,26,3.8,RU,1635354713
536,tazmalt,36.3868,4.3989,65.48,64,100,4.14,DZ,1635354713
537,usinsk,65.9939,57.5281,21.54,86,100,12.21,RU,1635354714
538,sola,-13.8833,167.55,80.62,78,96,16.6,VU,1635354714
539,kangavar,34.5043,47.9653,53.89,42,27,3.76,IR,1635354714
540,lebedinyy,58.5167,125.5167,19.94,75,99,15.32,RU,1635354715
541,plattsburgh,44.6995,-73.4529,53.37,64,75,4,US,1635354715
542,iranshahr,27.2025,60.6848,77.14,46,99,0.83,IR,1635354715
543,korla,41.7597,86.1469,50.45,40,100,2.84,CN,1635354715
544,tongliao,43.6125,122.2653,44.42,44,0,4.74,CN,1635354716
545,diego de almagro,-26.3667,-70.05,83.03,11,0,13.02,CL,1635354716
546,imeni poliny osipenko,52.4201,136.4853,33.42,88,87,5.08,RU,1635354716
547,kuytun,54.3419,101.5036,35.55,57,100,7.74,RU,1635354717
548,moctezuma,29.8,-109.6667,71.06,28,0,2.95,MX,1635354717
549,cidreira,-30.1811,-50.2056,75.63,53,3,8.79,BR,1635354717
550,claye-souilly,48.9449,2.6857,59.63,77,0,4.61,FR,1635354717
551,carupano,10.6678,-63.2585,76.08,91,100,6.51,VE,1635354718
552,shubarshi,48.5872,57.1869,36.52,34,3,5.32,KZ,1635354718
553,san luis,-33.295,-66.3356,90.19,12,94,20.85,AR,1635354718
554,flin flon,54.7682,-101.865,43.18,90,100,0.29,CA,1635354592
555,guaruja,-23.9931,-46.2564,83.8,26,99,1.01,BR,1635354719
